{
    "type": "FeatureCollection",
    "features": [
        {
            "type": "Feature",
            "geometry": {
                "type": "Point",
                "coordinates": [
                    11.21138,
                    50.894489,
                    0
                ]
            },
            "properties": {
                "name": "Schloß Tonndorf",
                "description": "http://schloss-tonndorf.de/"
            }
        },
        {
            "type": "Feature",
            "geometry": {
                "type": "Point",
                "coordinates": [
                    11.143442,
                    52.689285,
                    0
                ]
            },
            "properties": {
                "name": "Ökodorf Sieben Linden"
            }
        },
        {
            "type": "Feature",
            "geometry": {
                "type": "Point",
                "coordinates": [
                    10.699271,
                    47.567074,
                    0
                ]
            },
            "properties": {
                "name": "Likatien",
                "description": "87629 Füssen http://www.likatien.de/likatien/impressum.php"
            }
        },
        {
            "type": "Feature",
            "geometry": {
                "type": "Point",
                "coordinates": [
                    9.545557,
                    51.976852,
                    0
                ]
            },
            "properties": {
                "name": "Kommune Buchhagen",
                "description": "37619 Bodenwerder  http://www.kommune-buchhagen.de/index.htm "
            }
        },
        {
            "type": "Feature",
            "geometry": {
                "type": "Point",
                "coordinates": [
                    9.023312,
                    52.586403,
                    0
                ]
            },
            "properties": {
                "name": "Lebensgarten Steyerberg",
                "description": "31595 Steyerberg http://www.lebensgarten-steyerberg.de/index.php "
            }
        },
        {
            "type": "Feature",
            "geometry": {
                "type": "Point",
                "coordinates": [
                    13.16402,
                    53.49509,
                    0
                ]
            },
            "properties": {
                "name": "Tollense  Lebenspark",
                "description": "17217 Penzlin  http://www.tollense-lebenspark.de/impressum "
            }
        },
        {
            "type": "Feature",
            "geometry": {
                "type": "Point",
                "coordinates": [
                    10.835223,
                    50.923866,
                    0
                ]
            },
            "properties": {
                "name": "LebensGut-Cobstädt",
                "description": "http://www.lebensgut-cobstaedt.de/pages/de/impressum.php"
            }
        },
        {
            "type": "Feature",
            "geometry": {
                "type": "Point",
                "coordinates": [
                    12.528394,
                    52.156357,
                    0
                ]
            },
            "properties": {
                "name": "Hofgemeinschaft Lübnitz",
                "description": "14806 Bad Belzig  http://www.xn--hofgemeinschaft-lbnitz-8lc.de/die-gemeinschaft.html "
            }
        },
        {
            "type": "Feature",
            "geometry": {
                "type": "Point",
                "coordinates": [
                    13.28544,
                    51.274021,
                    0
                ]
            },
            "properties": {
                "name": "Lebenstraumgemeinschaft Jahnishausen",
                "description": "01594 Riesa  http://www.ltgj.de/kontakt "
            }
        },
        {
            "type": "Feature",
            "geometry": {
                "type": "Point",
                "coordinates": [
                    9.601907,
                    51.285439,
                    0
                ]
            },
            "properties": {
                "name": "Kommune Niederkaufungen",
                "description": "34260 Kaufungen  http://www.kommune-niederkaufungen.de/ "
            }
        },
        {
            "type": "Feature",
            "geometry": {
                "type": "Point",
                "coordinates": [
                    10.561471,
                    50.900124,
                    0
                ]
            },
            "properties": {
                "name": "KoWa e. V.",
                "description": " 99880 Waltershausen http://www.kommune-kowa.de/impressumkontakt/]]"
            }
        },
        {
            "type": "Feature",
            "geometry": {
                "type": "Point",
                "coordinates": [
                    10.19431,
                    53.661709,
                    0
                ]
            },
            "properties": {
                "name": "Allmende Wulfsdorf e.V",
                "description": "22926 Ahrensburg"
            }
        },
        {
            "type": "Feature",
            "geometry": {
                "type": "Point",
                "coordinates": [
                    8.06549,
                    50.490921,
                    0
                ]
            },
            "properties": {
                "name": "Projekt Gaia",
                "description": "65627 Elbtal  http://www.lebensdorf-gaia.de/index.php?option=com_frontpage&Itemid=45 "
            }
        },
        {
            "type": "Feature",
            "geometry": {
                "type": "Point",
                "coordinates": [
                    12.95473,
                    48.331848,
                    0
                ]
            },
            "properties": {
                "name": "Lebensprojekt Meiseneck",
                "description": "84367 Reut http://meiseneck.ethicway.de/index.php/en/lebensprojekt-meiseneck "
            }
        },
        {
            "type": "Feature",
            "geometry": {
                "type": "Point",
                "coordinates": [
                    13.212991,
                    51.060333,
                    0
                ]
            },
            "properties": {
                "name": "Kooperative Schloß Gersdorf GmbH",
                "description": "09661 Striegistal  http://schloss-gersdorf.org/kontakt/ "
            }
        },
        {
            "type": "Feature",
            "geometry": {
                "type": "Point",
                "coordinates": [
                    9.89749,
                    47.85429,
                    0
                ]
            },
            "properties": {
                "name": " Schäfereigenossenschaft Finkhof",
                "description": "88410 Bad Wurzach  http://www.finkhof.de/start/ueber-uns/wo-sind-wir.html "
            }
        },
        {
            "type": "Feature",
            "geometry": {
                "type": "Point",
                "coordinates": [
                    10.20645,
                    49.126179,
                    0
                ]
            },
            "properties": {
                "name": "Tempelhof",
                "description": " 74594 Kreßberg http://www.schloss-tempelhof.de"
            }
        }
        {
            "type": "Feature",
            "geometry": {
                "type": "Point",
                "coordinates": [
                    52.157204,
                    12.593065
                    0
                ]
            },
            "properties": {
                "name": "ZEGG Forschungs- und Bildungszentrum GmbH",
                "description": "Rosa-Luxemburg-Str. 89, 14806 Bad Belzig http://www.zegg.de"
            }
        }
    ]
}
